[
  {
    "id": "ebcaa69b-fced-e411-80da-00155d0a0806",
    "name": "Baylys Beach SLS",
    "lat": -35.955,
    "lng": 173.748,
    "pod": "Unassigned",
    "region": "",
    "regionalArea": "",
    "primaryMembers": 0,
    "otherMembers": 0,
    "volunteerPatrolHours": 0,
    "plsPatrolHours": 0,
    "nationsEntries": 0,
    "maoriPercent": 0
  },
  {
    "id": "24caa69b-fced-e411-80da-00155d0a0806",
    "name": "Bethells Beach SLSP",
    "lat": -36.89044,
    "lng": 174.448,
    "pod": "Unassigned",
    "region": "",
    "regionalArea": "",
    "primaryMembers": 0,
    "otherMembers": 0,
    "volunteerPatrolHours": 0,
    "plsPatrolHours": 0,
    "nationsEntries": 0,
    "maoriPercent": 0
  },
  {
    "id": "51caa69b-fced-e411-80da-00155d0a0806",
    "name": "Brighton SLSC",
    "lat": -45.93821,
    "lng": 170.35063,
    "pod": "Unassigned",
    "region": "",
    "regionalArea": "",
    "primaryMembers": 0,
    "otherMembers": 0,
    "volunteerPatrolHours": 0,
    "plsPatrolHours": 0,
    "nationsEntries": 0,
    "maoriPercent": 0
  },
  {
    "id": "9ccaa69b-fced-e411-80da-00155d0a0806",
    "name": "Buller CRS",
    "lat": -41.74712,
    "lng": 171.55887,
    "pod": "Unassigned",
    "region": "",
    "regionalArea": "",
    "primaryMembers": 0,
    "otherMembers": 0,
    "volunteerPatrolHours": 0,
    "plsPatrolHours": 0,
    "nationsEntries": 0,
    "maoriPercent": 0
  },
  {
    "id": "9bcaa69b-fced-e411-80da-00155d0a0806",
    "name": "East End SLSC",
    "lat": -39.04872,
    "lng": 174.09284,
    "pod": "Unassigned",
    "region": "",
    "regionalArea": "",
    "primaryMembers": 0,
    "otherMembers": 0,
    "volunteerPatrolHours": 0,
    "plsPatrolHours": 0,
    "nationsEntries": 0,
    "maoriPercent": 0
  },
  {
    "id": "70caa69b-fced-e411-80da-00155d0a0806",
    "name": "Far North",
    "lat": -35.16662,
    "lng": 173.15463,
    "pod": "Unassigned",
    "region": "",
    "regionalArea": "",
    "primaryMembers": 0,
    "otherMembers": 0,
    "volunteerPatrolHours": 0,
    "plsPatrolHours": 0,
    "nationsEntries": 0,
    "maoriPercent": 0
  },
  {
    "id": "30caa69b-fced-e411-80da-00155d0a0806",
    "name": "Fitzroy SLSC",
    "lat": -39.04554,
    "lng": 174.09742,
    "pod": "Unassigned",
    "region": "",
    "regionalArea": "",
    "primaryMembers": 0,
    "otherMembers": 0,
    "volunteerPatrolHours": 0,
    "plsPatrolHours": 0,
    "nationsEntries": 0,
    "maoriPercent": 0
  },
  {
    "id": "90caa69b-fced-e411-80da-00155d0a0806",
    "name": "Foxton SLSC",
    "lat": -40.45816,
    "lng": 175.21595,
    "pod": "Unassigned",
    "region": "",
    "regionalArea": "",
    "primaryMembers": 0,
    "otherMembers": 0,
    "volunteerPatrolHours": 0,
    "plsPatrolHours": 0,
    "nationsEntries": 0,
    "maoriPercent": 0
  },
  {
    "id": "3acaa69b-fced-e411-80da-00155d0a0806",
    "name": "Hot Water Beach LS",
    "lat": -36.88338,
    "lng": 175.82071,
    "pod": "Unassigned",
    "region": "",
    "regionalArea": "",
    "primaryMembers": 0,
    "otherMembers": 0,
    "volunteerPatrolHours": 0,
    "plsPatrolHours": 0,
    "nationsEntries": 0,
    "maoriPercent": 0
  },
  {
    "id": "c0caa69b-fced-e411-80da-00155d0a0806",
    "name": "Kaka Point SLSC",
    "lat": -46.38714,
    "lng": 169.78202,
    "pod": "Unassigned",
    "region": "",
    "regionalArea": "",
    "primaryMembers": 0,
    "otherMembers": 0,
    "volunteerPatrolHours": 0,
    "plsPatrolHours": 0,
    "nationsEntries": 0,
    "maoriPercent": 0
  },
  {
    "id": "edcaa69b-fced-e411-80da-00155d0a0806",
    "name": "Karekare SLSC",
    "lat": -36.98637,
    "lng": 174.47939,
    "pod": "Unassigned",
    "region": "",
    "regionalArea": "",
    "primaryMembers": 0,
    "otherMembers": 0,
    "volunteerPatrolHours": 0,
    "plsPatrolHours": 0,
    "nationsEntries": 0,
    "maoriPercent": 0
  },
  {
    "id": "c2caa69b-fced-e411-80da-00155d0a0806",
    "name": "Kariaotahi SLSC",
    "lat": -37.28414,
    "lng": 174.65533,
    "pod": "Unassigned",
    "region": "",
    "regionalArea": "",
    "primaryMembers": 0,
    "otherMembers": 0,
    "volunteerPatrolHours": 0,
    "plsPatrolHours": 0,
    "nationsEntries": 0,
    "maoriPercent": 0
  },
  {
    "id": "71caa69b-fced-e411-80da-00155d0a0806",
    "name": "Kotuku SLSC",
    "lat": -42.47264,
    "lng": 171.18474,
    "pod": "Unassigned",
    "region": "",
    "regionalArea": "",
    "primaryMembers": 0,
    "otherMembers": 0,
    "volunteerPatrolHours": 0,
    "plsPatrolHours": 0,
    "nationsEntries": 0,
    "maoriPercent": 0
  },
  {
    "id": "34caa69b-fced-e411-80da-00155d0a0806",
    "name": "Levin-Waitarere SLSC",
    "lat": -40.54903,
    "lng": 175.19579,
    "pod": "Unassigned",
    "region": "",
    "regionalArea": "",
    "primaryMembers": 0,
    "otherMembers": 0,
    "volunteerPatrolHours": 0,
    "plsPatrolHours": 0,
    "nationsEntries": 0,
    "maoriPercent": 0
  },
  {
    "id": "a9caa69b-fced-e411-80da-00155d0a0806",
    "name": "Lyall Bay SLSC",
    "lat": -41.32992,
    "lng": 174.79406,
    "pod": "Unassigned",
    "region": "",
    "regionalArea": "",
    "primaryMembers": 0,
    "otherMembers": 0,
    "volunteerPatrolHours": 0,
    "plsPatrolHours": 0,
    "nationsEntries": 0,
    "maoriPercent": 0
  },
  {
    "id": "fcc9a69b-fced-e411-80da-00155d0a0806",
    "name": "Mairangi Bay SLSC",
    "lat": -36.73874,
    "lng": 174.75622,
    "pod": "Unassigned",
    "region": "",
    "regionalArea": "",
    "primaryMembers": 0,
    "otherMembers": 0,
    "volunteerPatrolHours": 0,
    "plsPatrolHours": 0,
    "nationsEntries": 0,
    "maoriPercent": 0
  },
  {
    "id": "eac9a69b-fced-e411-80da-00155d0a0806",
    "name": "Maketu SLSC",
    "lat": -37.75427,
    "lng": 176.45614,
    "pod": "Unassigned",
    "region": "",
    "regionalArea": "",
    "primaryMembers": 0,
    "otherMembers": 0,
    "volunteerPatrolHours": 0,
    "plsPatrolHours": 0,
    "nationsEntries": 0,
    "maoriPercent": 0
  },
  {
    "id": "cccaa69b-fced-e411-80da-00155d0a0806",
    "name": "Mangawhai Heads Volunteer Lifeguard Service Inc.",
    "lat": -36.0816,
    "lng": 174.5985,
    "pod": "Unassigned",
    "region": "",
    "regionalArea": "",
    "primaryMembers": 0,
    "otherMembers": 0,
    "volunteerPatrolHours": 0,
    "plsPatrolHours": 0,
    "nationsEntries": 0,
    "maoriPercent": 0
  },
  {
    "id": "9dcaa69b-fced-e411-80da-00155d0a0806",
    "name": "Maranui SLSC",
    "lat": -41.32992,
    "lng": 174.79406,
    "pod": "Unassigned",
    "region": "",
    "regionalArea": "",
    "primaryMembers": 0,
    "otherMembers": 0,
    "volunteerPatrolHours": 0,
    "plsPatrolHours": 0,
    "nationsEntries": 0,
    "maoriPercent": 0
  },
  {
    "id": "08caa69b-fced-e411-80da-00155d0a0806",
    "name": "Midway SLSC",
    "lat": -38.67041,
    "lng": 178.00531,
    "pod": "Unassigned",
    "region": "",
    "regionalArea": "",
    "primaryMembers": 0,
    "otherMembers": 0,
    "volunteerPatrolHours": 0,
    "plsPatrolHours": 0,
    "nationsEntries": 0,
    "maoriPercent": 0
  },
  {
    "id": "1bcaa69b-fced-e411-80da-00155d0a0806",
    "name": "Mount Maunganui Lifeguard Service",
    "lat": -37.63039,
    "lng": 176.1776,
    "pod": "Unassigned",
    "region": "",
    "regionalArea": "",
    "primaryMembers": 0,
    "otherMembers": 0,
    "volunteerPatrolHours": 0,
    "plsPatrolHours": 0,
    "nationsEntries": 0,
    "maoriPercent": 0
  },
  {
    "id": "3ecaa69b-fced-e411-80da-00155d0a0806",
    "name": "Muriwai VLS",
    "lat": -36.8364,
    "lng": 174.42793,
    "pod": "Unassigned",
    "region": "",
    "regionalArea": "",
    "primaryMembers": 0,
    "otherMembers": 0,
    "volunteerPatrolHours": 0,
    "plsPatrolHours": 0,
    "nationsEntries": 0,
    "maoriPercent": 0
  },
  {
    "id": "6bcaa69b-fced-e411-80da-00155d0a0806",
    "name": "Nelson SLSC",
    "lat": -41.27831,
    "lng": 173.23885,
    "pod": "Unassigned",
    "region": "",
    "regionalArea": "",
    "primaryMembers": 0,
    "otherMembers": 0,
    "volunteerPatrolHours": 0,
    "plsPatrolHours": 0,
    "nationsEntries": 0,
    "maoriPercent": 0
  },
  {
    "id": "65caa69b-fced-e411-80da-00155d0a0806",
    "name": "New Brighton SLSC",
    "lat": -43.50399,
    "lng": 172.73035,
    "pod": "Unassigned",
    "region": "",
    "regionalArea": "",
    "primaryMembers": 0,
    "otherMembers": 0,
    "volunteerPatrolHours": 0,
    "plsPatrolHours": 0,
    "nationsEntries": 0,
    "maoriPercent": 0
  },
  {
    "id": "31caa69b-fced-e411-80da-00155d0a0806",
    "name": "New Plymouth Old Boys SLSC",
    "lat": -39.11577,
    "lng": 173.94727,
    "pod": "Unassigned",
    "region": "",
    "regionalArea": "",
    "primaryMembers": 0,
    "otherMembers": 0,
    "volunteerPatrolHours": 0,
    "plsPatrolHours": 0,
    "nationsEntries": 0,
    "maoriPercent": 0
  },
  {
    "id": "a8caa69b-fced-e411-80da-00155d0a0806",
    "name": "Ngati Porou SLSC",
    "lat": -37.59362,
    "lng": 178.30166,
    "pod": "Unassigned",
    "region": "",
    "regionalArea": "",
    "primaryMembers": 0,
    "otherMembers": 0,
    "volunteerPatrolHours": 0,
    "plsPatrolHours": 0,
    "nationsEntries": 0,
    "maoriPercent": 0
  },
  {
    "id": "a0caa69b-fced-e411-80da-00155d0a0806",
    "name": "North Beach SLSC",
    "lat": -43.49397,
    "lng": 172.72651,
    "pod": "Unassigned",
    "region": "",
    "regionalArea": "",
    "primaryMembers": 0,
    "otherMembers": 0,
    "volunteerPatrolHours": 0,
    "plsPatrolHours": 0,
    "nationsEntries": 0,
    "maoriPercent": 0
  },
  {
    "id": "8dcaa69b-fced-e411-80da-00155d0a0806",
    "name": "Ocean Beach Kiwi SLSC",
    "lat": -39.74386,
    "lng": 177.0089,
    "pod": "Unassigned",
    "region": "",
    "regionalArea": "",
    "primaryMembers": 0,
    "otherMembers": 0,
    "volunteerPatrolHours": 0,
    "plsPatrolHours": 0,
    "nationsEntries": 0,
    "maoriPercent": 0
  },
  {
    "id": "80caa69b-fced-e411-80da-00155d0a0806",
    "name": "Omaha Beach SLSC",
    "lat": -36.33957,
    "lng": 174.78093,
    "pod": "Unassigned",
    "region": "",
    "regionalArea": "",
    "primaryMembers": 0,
    "otherMembers": 0,
    "volunteerPatrolHours": 0,
    "plsPatrolHours": 0,
    "nationsEntries": 0,
    "maoriPercent": 0
  },
  {
    "id": "5acaa69b-fced-e411-80da-00155d0a0806",
    "name": "Omanu SLSC",
    "lat": -37.6586,
    "lng": 176.21563,
    "pod": "Unassigned",
    "region": "",
    "regionalArea": "",
    "primaryMembers": 0,
    "otherMembers": 0,
    "volunteerPatrolHours": 0,
    "plsPatrolHours": 0,
    "nationsEntries": 0,
    "maoriPercent": 0
  },
  {
    "id": "d5caa69b-fced-e411-80da-00155d0a0806",
    "name": "Onemana SLSC",
    "lat": -37.1525,
    "lng": 175.87948,
    "pod": "Unassigned",
    "region": "",
    "regionalArea": "",
    "primaryMembers": 0,
    "otherMembers": 0,
    "volunteerPatrolHours": 0,
    "plsPatrolHours": 0,
    "nationsEntries": 0,
    "maoriPercent": 0
  },
  {
    "id": "11caa69b-fced-e411-80da-00155d0a0806",
    "name": "Opotiki SLSC",
    "lat": -37.99179,
    "lng": 177.23997,
    "pod": "Unassigned",
    "region": "",
    "regionalArea": "",
    "primaryMembers": 0,
    "otherMembers": 0,
    "volunteerPatrolHours": 0,
    "plsPatrolHours": 0,
    "nationsEntries": 0,
    "maoriPercent": 0
  },
  {
    "id": "8ccaa69b-fced-e411-80da-00155d0a0806",
    "name": "Opunake SLSC",
    "lat": -39.45778,
    "lng": 173.85711,
    "pod": "Unassigned",
    "region": "",
    "regionalArea": "",
    "primaryMembers": 0,
    "otherMembers": 0,
    "volunteerPatrolHours": 0,
    "plsPatrolHours": 0,
    "nationsEntries": 0,
    "maoriPercent": 0
  },
  {
    "id": "ddcaa69b-fced-e411-80da-00155d0a0806",
    "name": "Oreti SLSC",
    "lat": -46.43927,
    "lng": 168.23455,
    "pod": "Unassigned",
    "region": "",
    "regionalArea": "",
    "primaryMembers": 0,
    "otherMembers": 0,
    "volunteerPatrolHours": 0,
    "plsPatrolHours": 0,
    "nationsEntries": 0,
    "maoriPercent": 0
  },
  {
    "id": "19caa69b-fced-e411-80da-00155d0a0806",
    "name": "Orewa SLSC",
    "lat": -36.59095,
    "lng": 174.69849,
    "pod": "Unassigned",
    "region": "",
    "regionalArea": "",
    "primaryMembers": 0,
    "otherMembers": 0,
    "volunteerPatrolHours": 0,
    "plsPatrolHours": 0,
    "nationsEntries": 0,
    "maoriPercent": 0
  },
  {
    "id": "83caa69b-fced-e411-80da-00155d0a0806",
    "name": "Otaki SLSC",
    "lat": -40.73679,
    "lng": 175.11587,
    "pod": "Unassigned",
    "region": "",
    "regionalArea": "",
    "primaryMembers": 0,
    "otherMembers": 0,
    "volunteerPatrolHours": 0,
    "plsPatrolHours": 0,
    "nationsEntries": 0,
    "maoriPercent": 0
  },
  {
    "id": "e2caa69b-fced-e411-80da-00155d0a0806",
    "name": "Pacific SLSC",
    "lat": -39.48574,
    "lng": 176.92088,
    "pod": "Unassigned",
    "region": "",
    "regionalArea": "",
    "primaryMembers": 0,
    "otherMembers": 0,
    "volunteerPatrolHours": 0,
    "plsPatrolHours": 0,
    "nationsEntries": 0,
    "maoriPercent": 0
  },
  {
    "id": "23caa69b-fced-e411-80da-00155d0a0806",
    "name": "Paekakariki Surf Lifeguards",
    "lat": -40.98039,
    "lng": 174.95496,
    "pod": "Unassigned",
    "region": "",
    "regionalArea": "",
    "primaryMembers": 0,
    "otherMembers": 0,
    "volunteerPatrolHours": 0,
    "plsPatrolHours": 0,
    "nationsEntries": 0,
    "maoriPercent": 0
  },
  {
    "id": "01caa69b-fced-e411-80da-00155d0a0806",
    "name": "Palmerston North SLSC",
    "lat": -40.36986,
    "lng": 175.23059,
    "pod": "Unassigned",
    "region": "",
    "regionalArea": "",
    "primaryMembers": 0,
    "otherMembers": 0,
    "volunteerPatrolHours": 0,
    "plsPatrolHours": 0,
    "nationsEntries": 0,
    "maoriPercent": 0
  },
  {
    "id": "66caa69b-fced-e411-80da-00155d0a0806",
    "name": "Papamoa SLSC",
    "lat": -37.69605,
    "lng": 176.28609,
    "pod": "Unassigned",
    "region": "",
    "regionalArea": "",
    "primaryMembers": 0,
    "otherMembers": 0,
    "volunteerPatrolHours": 0,
    "plsPatrolHours": 0,
    "nationsEntries": 0,
    "maoriPercent": 0
  },
  {
    "id": "f7c9a69b-fced-e411-80da-00155d0a0806",
    "name": "Pauanui SLSC",
    "lat": -37.01343,
    "lng": 175.86549,
    "pod": "Unassigned",
    "region": "",
    "regionalArea": "",
    "primaryMembers": 0,
    "otherMembers": 0,
    "volunteerPatrolHours": 0,
    "plsPatrolHours": 0,
    "nationsEntries": 0,
    "maoriPercent": 0
  },
  {
    "id": "c3caa69b-fced-e411-80da-00155d0a0806",
    "name": "Piha SLSC",
    "lat": -36.95654,
    "lng": 174.46763,
    "pod": "Unassigned",
    "region": "",
    "regionalArea": "",
    "primaryMembers": 0,
    "otherMembers": 0,
    "volunteerPatrolHours": 0,
    "plsPatrolHours": 0,
    "nationsEntries": 0,
    "maoriPercent": 0
  },
  {
    "id": "d7caa69b-fced-e411-80da-00155d0a0806",
    "name": "Pukehina Surf Rescue",
    "lat": -37.76033,
    "lng": 176.48417,
    "pod": "Unassigned",
    "region": "",
    "regionalArea": "",
    "primaryMembers": 0,
    "otherMembers": 0,
    "volunteerPatrolHours": 0,
    "plsPatrolHours": 0,
    "nationsEntries": 0,
    "maoriPercent": 0
  },
  {
    "id": "58caa69b-fced-e411-80da-00155d0a0806",
    "name": "Raglan SLSC",
    "lat": -37.81817,
    "lng": 174.82809,
    "pod": "Unassigned",
    "region": "",
    "regionalArea": "",
    "primaryMembers": 0,
    "otherMembers": 0,
    "volunteerPatrolHours": 0,
    "plsPatrolHours": 0,
    "nationsEntries": 0,
    "maoriPercent": 0
  },
  {
    "id": "fdc9a69b-fced-e411-80da-00155d0a0806",
    "name": "Rarangi SLSC",
    "lat": -41.40883,
    "lng": 174.04048,
    "pod": "Unassigned",
    "region": "",
    "regionalArea": "",
    "primaryMembers": 0,
    "otherMembers": 0,
    "volunteerPatrolHours": 0,
    "plsPatrolHours": 0,
    "nationsEntries": 0,
    "maoriPercent": 0
  },
  {
    "id": "3fcaa69b-fced-e411-80da-00155d0a0806",
    "name": "Red Beach SLSC",
    "lat": -36.6019,
    "lng": 174.70815,
    "pod": "Unassigned",
    "region": "",
    "regionalArea": "",
    "primaryMembers": 0,
    "otherMembers": 0,
    "volunteerPatrolHours": 0,
    "plsPatrolHours": 0,
    "nationsEntries": 0,
    "maoriPercent": 0
  },
  {
    "id": "14caa69b-fced-e411-80da-00155d0a0806",
    "name": "Riversdale SLSC",
    "lat": -41.08719,
    "lng": 176.07511,
    "pod": "Unassigned",
    "region": "",
    "regionalArea": "",
    "primaryMembers": 0,
    "otherMembers": 0,
    "volunteerPatrolHours": 0,
    "plsPatrolHours": 0,
    "nationsEntries": 0,
    "maoriPercent": 0
  },
  {
    "id": "b4caa69b-fced-e411-80da-00155d0a0806",
    "name": "Ruakaka SLSP",
    "lat": -35.90889,
    "lng": 174.46054,
    "pod": "Unassigned",
    "region": "",
    "regionalArea": "",
    "primaryMembers": 0,
    "otherMembers": 0,
    "volunteerPatrolHours": 0,
    "plsPatrolHours": 0,
    "nationsEntries": 0,
    "maoriPercent": 0
  },
  {
    "id": "7dcaa69b-fced-e411-80da-00155d0a0806",
    "name": "South Brighton SLSC",
    "lat": -43.52224,
    "lng": 172.73688,
    "pod": "Unassigned",
    "region": "",
    "regionalArea": "",
    "primaryMembers": 0,
    "otherMembers": 0,
    "volunteerPatrolHours": 0,
    "plsPatrolHours": 0,
    "nationsEntries": 0,
    "maoriPercent": 0
  },
  {
    "id": "b5caa69b-fced-e411-80da-00155d0a0806",
    "name": "Spencer Park SLSC",
    "lat": -43.43214,
    "lng": 172.71362,
    "pod": "Unassigned",
    "region": "",
    "regionalArea": "",
    "primaryMembers": 0,
    "otherMembers": 0,
    "volunteerPatrolHours": 0,
    "plsPatrolHours": 0,
    "nationsEntries": 0,
    "maoriPercent": 0
  },
  {
    "id": "b6caa69b-fced-e411-80da-00155d0a0806",
    "name": "St Clair SLSC",
    "lat": -45.91133,
    "lng": 170.49125,
    "pod": "Unassigned",
    "region": "",
    "regionalArea": "",
    "primaryMembers": 0,
    "otherMembers": 0,
    "volunteerPatrolHours": 0,
    "plsPatrolHours": 0,
    "nationsEntries": 0,
    "maoriPercent": 0
  },
  {
    "id": "4acaa69b-fced-e411-80da-00155d0a0806",
    "name": "St Kilda SLSC",
    "lat": -45.90829,
    "lng": 170.51183,
    "pod": "Unassigned",
    "region": "",
    "regionalArea": "",
    "primaryMembers": 0,
    "otherMembers": 0,
    "volunteerPatrolHours": 0,
    "plsPatrolHours": 0,
    "nationsEntries": 0,
    "maoriPercent": 0
  },
  {
    "id": "edc9a69b-fced-e411-80da-00155d0a0806",
    "name": "Sumner SLSC",
    "lat": -43.56597,
    "lng": 172.75616,
    "pod": "Unassigned",
    "region": "",
    "regionalArea": "",
    "primaryMembers": 0,
    "otherMembers": 0,
    "volunteerPatrolHours": 0,
    "plsPatrolHours": 0,
    "nationsEntries": 0,
    "maoriPercent": 0
  },
  {
    "id": "69caa69b-fced-e411-80da-00155d0a0806",
    "name": "Sunset Beach LS",
    "lat": -37.40054,
    "lng": 174.71054,
    "pod": "Unassigned",
    "region": "",
    "regionalArea": "",
    "primaryMembers": 0,
    "otherMembers": 0,
    "volunteerPatrolHours": 0,
    "plsPatrolHours": 0,
    "nationsEntries": 0,
    "maoriPercent": 0
  },
  {
    "id": "f1c9a69b-fced-e411-80da-00155d0a0806",
    "name": "Tairua SLSC",
    "lat": -36.99166,
    "lng": 175.85925,
    "pod": "Unassigned",
    "region": "",
    "regionalArea": "",
    "primaryMembers": 0,
    "otherMembers": 0,
    "volunteerPatrolHours": 0,
    "plsPatrolHours": 0,
    "nationsEntries": 0,
    "maoriPercent": 0
  },
  {
    "id": "45caa69b-fced-e411-80da-00155d0a0806",
    "name": "Taylors Mistake SLSC",
    "lat": -43.58334,
    "lng": 172.7763,
    "pod": "Unassigned",
    "region": "",
    "regionalArea": "",
    "primaryMembers": 0,
    "otherMembers": 0,
    "volunteerPatrolHours": 0,
    "plsPatrolHours": 0,
    "nationsEntries": 0,
    "maoriPercent": 0
  },
  {
    "id": "09caa69b-fced-e411-80da-00155d0a0806",
    "name": "Titahi Bay SLSC",
    "lat": -41.10627,
    "lng": 174.83541,
    "pod": "Unassigned",
    "region": "",
    "regionalArea": "",
    "primaryMembers": 0,
    "otherMembers": 0,
    "volunteerPatrolHours": 0,
    "plsPatrolHours": 0,
    "nationsEntries": 0,
    "maoriPercent": 0
  },
  {
    "id": "cfcaa69b-fced-e411-80da-00155d0a0806",
    "name": "Tolaga Bay SLSC",
    "lat": -38.36933,
    "lng": 178.30627,
    "pod": "Unassigned",
    "region": "",
    "regionalArea": "",
    "primaryMembers": 0,
    "otherMembers": 0,
    "volunteerPatrolHours": 0,
    "plsPatrolHours": 0,
    "nationsEntries": 0,
    "maoriPercent": 0
  },
  {
    "id": "cecaa69b-fced-e411-80da-00155d0a0806",
    "name": "United North Piha Lifeguard Service",
    "lat": -36.94261,
    "lng": 174.46414,
    "pod": "Unassigned",
    "region": "",
    "regionalArea": "",
    "primaryMembers": 0,
    "otherMembers": 0,
    "volunteerPatrolHours": 0,
    "plsPatrolHours": 0,
    "nationsEntries": 0,
    "maoriPercent": 0
  },
  {
    "id": "aacaa69b-fced-e411-80da-00155d0a0806",
    "name": "Waihi Beach LS",
    "lat": -37.39764,
    "lng": 175.93828,
    "pod": "Unassigned",
    "region": "",
    "regionalArea": "",
    "primaryMembers": 0,
    "otherMembers": 0,
    "volunteerPatrolHours": 0,
    "plsPatrolHours": 0,
    "nationsEntries": 0,
    "maoriPercent": 0
  },
  {
    "id": "1ccaa69b-fced-e411-80da-00155d0a0806",
    "name": "Waikanae SLSC",
    "lat": -38.671,
    "lng": 178.01734,
    "pod": "Unassigned",
    "region": "",
    "regionalArea": "",
    "primaryMembers": 0,
    "otherMembers": 0,
    "volunteerPatrolHours": 0,
    "plsPatrolHours": 0,
    "nationsEntries": 0,
    "maoriPercent": 0
  },
  {
    "id": "57caa69b-fced-e411-80da-00155d0a0806",
    "name": "Waikuku Beach SLSC",
    "lat": -43.28791,
    "lng": 172.72145,
    "pod": "Unassigned",
    "region": "",
    "regionalArea": "",
    "primaryMembers": 0,
    "otherMembers": 0,
    "volunteerPatrolHours": 0,
    "plsPatrolHours": 0,
    "nationsEntries": 0,
    "maoriPercent": 0
  },
  {
    "id": "06caa69b-fced-e411-80da-00155d0a0806",
    "name": "Waimairi SLSC",
    "lat": -43.4858,
    "lng": 172.72393,
    "pod": "Unassigned",
    "region": "",
    "regionalArea": "",
    "primaryMembers": 0,
    "otherMembers": 0,
    "volunteerPatrolHours": 0,
    "plsPatrolHours": 0,
    "nationsEntries": 0,
    "maoriPercent": 0
  },
  {
    "id": "fac9a69b-fced-e411-80da-00155d0a0806",
    "name": "Waimarama SLSC",
    "lat": -39.81495,
    "lng": 176.99474,
    "pod": "Unassigned",
    "region": "",
    "regionalArea": "",
    "primaryMembers": 0,
    "otherMembers": 0,
    "volunteerPatrolHours": 0,
    "plsPatrolHours": 0,
    "nationsEntries": 0,
    "maoriPercent": 0
  },
  {
    "id": "cdcaa69b-fced-e411-80da-00155d0a0806",
    "name": "Wainui SLSC",
    "lat": -38.67839,
    "lng": 178.08071,
    "pod": "Unassigned",
    "region": "",
    "regionalArea": "",
    "primaryMembers": 0,
    "otherMembers": 0,
    "volunteerPatrolHours": 0,
    "plsPatrolHours": 0,
    "nationsEntries": 0,
    "maoriPercent": 0
  },
  {
    "id": "e6caa69b-fced-e411-80da-00155d0a0806",
    "name": "Waipu Cove SLSC",
    "lat": -36.0245,
    "lng": 174.49717,
    "pod": "Unassigned",
    "region": "",
    "regionalArea": "",
    "primaryMembers": 0,
    "otherMembers": 0,
    "volunteerPatrolHours": 0,
    "plsPatrolHours": 0,
    "nationsEntries": 0,
    "maoriPercent": 0
  },
  {
    "id": "49caa69b-fced-e411-80da-00155d0a0806",
    "name": "Warrington SLSC",
    "lat": -45.7144,
    "lng": 170.5975,
    "pod": "Unassigned",
    "region": "",
    "regionalArea": "",
    "primaryMembers": 0,
    "otherMembers": 0,
    "volunteerPatrolHours": 0,
    "plsPatrolHours": 0,
    "nationsEntries": 0,
    "maoriPercent": 0
  },
  {
    "id": "26caa69b-fced-e411-80da-00155d0a0806",
    "name": "Westshore SLSC",
    "lat": -39.47531,
    "lng": 176.88244,
    "pod": "Unassigned",
    "region": "",
    "regionalArea": "",
    "primaryMembers": 0,
    "otherMembers": 0,
    "volunteerPatrolHours": 0,
    "plsPatrolHours": 0,
    "nationsEntries": 0,
    "maoriPercent": 0
  },
  {
    "id": "8bcaa69b-fced-e411-80da-00155d0a0806",
    "name": "Whakatane SLSC",
    "lat": -37.96321,
    "lng": 177.03593,
    "pod": "Unassigned",
    "region": "",
    "regionalArea": "",
    "primaryMembers": 0,
    "otherMembers": 0,
    "volunteerPatrolHours": 0,
    "plsPatrolHours": 0,
    "nationsEntries": 0,
    "maoriPercent": 0
  },
  {
    "id": "93caa69b-fced-e411-80da-00155d0a0806",
    "name": "Whangamata SLSC",
    "lat": -37.2143,
    "lng": 175.87947,
    "pod": "Unassigned",
    "region": "",
    "regionalArea": "",
    "primaryMembers": 0,
    "otherMembers": 0,
    "volunteerPatrolHours": 0,
    "plsPatrolHours": 0,
    "nationsEntries": 0,
    "maoriPercent": 0
  },
  {
    "id": "0dcaa69b-fced-e411-80da-00155d0a0806",
    "name": "Whanganui SLS",
    "lat": -39.939,
    "lng": 174.9769,
    "pod": "Unassigned",
    "region": "",
    "regionalArea": "",
    "primaryMembers": 0,
    "otherMembers": 0,
    "volunteerPatrolHours": 0,
    "plsPatrolHours": 0,
    "nationsEntries": 0,
    "maoriPercent": 0
  },
  {
    "id": "abcaa69b-fced-e411-80da-00155d0a0806",
    "name": "Whangarei Heads SLSP",
    "lat": -35.815,
    "lng": 174.50467,
    "pod": "Unassigned",
    "region": "",
    "regionalArea": "",
    "primaryMembers": 0,
    "otherMembers": 0,
    "volunteerPatrolHours": 0,
    "plsPatrolHours": 0,
    "nationsEntries": 0,
    "maoriPercent": 0
  },
  {
    "id": "c1caa69b-fced-e411-80da-00155d0a0806",
    "name": "Whiritoa LS",
    "lat": -37.28209,
    "lng": 175.90281,
    "pod": "Unassigned",
    "region": "",
    "regionalArea": "",
    "primaryMembers": 0,
    "otherMembers": 0,
    "volunteerPatrolHours": 0,
    "plsPatrolHours": 0,
    "nationsEntries": 0,
    "maoriPercent": 0
  },
  {
    "id": "6acaa69b-fced-e411-80da-00155d0a0806",
    "name": "Worser Bay LSC",
    "lat": -41.31274,
    "lng": 174.82966,
    "pod": "Unassigned",
    "region": "",
    "regionalArea": "",
    "primaryMembers": 0,
    "otherMembers": 0,
    "volunteerPatrolHours": 0,
    "plsPatrolHours": 0,
    "nationsEntries": 0,
    "maoriPercent": 0
  }
]